city_fips,cbsa_fips,City,State,st_fips,pop_2010,Population,lon,lat
4549075,34820,Myrtle Beach,South Carolina,45,27109,536165,-78.88430737,33.70960121
2147476,30940,London,Kentucky,21,7993,149462,-84.08040255,37.12093792
4221872,20700,East Stroudsburg,Pennsylvania,42,9840,167198,-75.17787757,41.00228075
1233250,34940,Immokalee,Florida,12,24154,397994,-81.42512312,26.42529866
4530850,24860,Greenville,South Carolina,45,58409,958958,-82.364848,34.83617312
1249675,35840,North Port,Florida,12,57357,891411,-82.19759754,27.0576743
3747880,35900,North Wilkesboro,North Carolina,37,4245,65784,-81.13905754,36.17281792
1245000,33100,Miami,Florida,12,399457,6139340,-80.21017417,25.78391824
662000,40140,Riverside,California,6,303871,4667558,-117.394838,33.93812489
1304000,12060,Atlanta,Georgia,13,420003,6222106,-84.42256331,33.76261514
2469925,41540,Salisbury,Maryland,24,30343,439032,-75.58671682,38.37553496
1215475,18880,Crestview,Florida,12,20978,299786,-86.57835356,30.74805961
4228960,23900,Gettysburg,Pennsylvania,42,7620,106027,-77.23388374,39.83036247
2657760,35660,Niles,Michigan,26,11600,152900,-86.24729747,41.83462869
5464708,38580,Point Pleasant,West Virginia,54,4350,54068,-82.13031493,38.85292225
4232800,25420,Harrisburg,Pennsylvania,42,49528,603493,-76.88425058,40.27523187
1259200,39460,Punta Gorda,Florida,12,16641,202661,-82.05161124,26.89337432
1232400,26140,Homosassa Springs,Florida,12,13791,162529,-82.53914189,28.81181011
1253000,36740,Orlando,Florida,12,238300,2764182,-81.33676406,28.47710555
4271776,43740,Somerset,Pennsylvania,42,6277,72710,-79.07778907,40.00495165
119648,19300,Daphne,Alabama,1,21570,246435,-87.88661573,30.62858953
1319728,18460,Cornelia,Georgia,13,4160,47475,-83.53098166,34.51693398
672674,43760,Sonora,California,6,4903,54531,-120.3828113,37.98188613
4268096,42380,Sayre,Pennsylvania,42,5587,59866,-76.52065167,41.98551155
2680340,45900,Traverse City,Michigan,26,14674,155813,-85.60350615,44.75471374
1150000,47900,Washington,District of Columbia,11,601723,6373756,-77.01626662,38.90469545
4287048,49620,York,Pennsylvania,42,43718,461058,-76.73150071,39.9650958
466470,43320,Show Low,Arizona,4,10660,108650,-110.0383788,34.26708688
1255925,37860,Pensacola,Florida,12,51923,523146,-87.18862557,30.44270631
1264875,42700,Sebring,Florida,12,10491,105618,-81.45297883,27.47694707
5408524,14140,Bluefield,West Virginia,54,10447,104669,-81.21429264,37.26076333
4220136,20180,DuBois,Pennsylvania,42,7794,77904,-78.75643232,41.12251011
4262432,39060,Pottsville,Pennsylvania,42,14324,143104,-76.20917163,40.67984167
4565095,42860,Seneca,South Carolina,45,8102,80180,-82.96090787,34.68155293
2571970,47240,Vineyard Haven,Massachusetts,25,2114,20868,-70.6069105,41.45651462
1271000,45300,Tampa,Florida,12,335709,3290730,-82.44533997,27.99401996
937000,25540,Hartford,Connecticut,9,124775,1221725,-72.68341807,41.76605516
2412150,15680,California,Maryland,24,11857,114877,-76.49494916,38.29685959
3654485,36300,Ogdensburg,New York,36,11128,107733,-75.47172617,44.70883872
2743000,33460,Minneapolis,Minnesota,27,382578,3693729,-93.26782012,44.96346695
4459000,39300,Providence,Rhode Island,44,178042,1673802,-71.41868563,41.82300866
4241216,29540,Lancaster,Pennsylvania,42,59322,556629,-76.30115803,40.04200174
4568290,43900,Spartanburg,South Carolina,45,37013,345831,-81.92564941,34.94370876
3601000,10580,Albany,New York,36,97856,904617,-73.79864407,42.66636927
3731060,25860,Hickory,North Carolina,37,40010,368347,-81.3230094,35.7425611
3715880,19000,Cullowhee,North Carolina,37,6228,56922,-83.18145876,35.3106708
3635969,26460,Hudson,New York,36,6713,61286,-73.78592703,42.25152986
4275304,44980,Sunbury,Pennsylvania,42,9905,90133,-76.78739355,40.86166166
1341988,27600,Jefferson,Georgia,13,9432,83936,-83.60218762,34.13710541
2965000,41180,St. Louis,Missouri,29,319294,2801319,-90.24514662,38.63576308
3724080,22580,Forest City,North Carolina,37,7476,64963,-81.87017397,35.33385989
4955980,36260,Ogden,Utah,49,82825,713839,-111.9677304,41.22801123
3629333,24020,Glens Falls,New York,36,14700,126440,-73.64585952,43.31091235
2360545,38860,Portland,Maine,23,66194,561576,-70.27151069,43.67727353
1217200,19660,Deltona,Florida,12,85182,705897,-81.21362352,28.90496671
3618256,18500,Corning,New York,36,11183,92599,-77.056054,42.14698928
830780,24060,Glenwood Springs,Colorado,8,9614,79147,-107.3346464,39.54546213
3454360,36140,Ocean City,New Jersey,34,11701,95634,-74.60193141,39.26815261
3969834,41400,Salem,Ohio,39,12303,100511,-80.84906987,40.90493754
1238250,29460,Lakeland,Florida,12,97422,787404,-81.95457076,28.05558407
3751940,38240,Pinehurst,North Carolina,37,13124,105531,-79.46823698,35.19222378
3744320,33980,Morehead City,North Carolina,37,8661,69380,-76.73856877,34.73043864
3988000,49660,Youngstown,Ohio,39,66982,535499,-80.64633557,41.09931221
2507000,14460,Boston,Massachusetts,25,617594,4900550,-71.08463279,42.31878296
3644710,31660,Malone,New York,36,5911,46373,-74.28888455,44.84898643
523290,22220,Fayetteville,Arkansas,5,73580,576403,-94.16596612,36.07131271
4212536,16540,Chambersburg,Pennsylvania,42,20268,156902,-77.65560166,39.93147348
4261000,38300,Pittsburgh,Pennsylvania,42,305704,2349172,-79.97626702,40.43961404
1264825,42680,Sebastian,Florida,12,21929,167352,-80.48152732,27.78830041
3639727,28740,Kingston,New York,36,23893,182319,-73.99676582,41.92948915
3915000,17140,Cincinnati,Ohio,39,296943,2265051,-84.50595021,39.14122708
2436075,25180,Hagerstown,Maryland,24,39662,302510,-77.72169746,39.64014602
2655020,33780,Monroe,Michigan,26,20733,155609,-83.38495627,41.91541585
4269000,42540,Scranton,Pennsylvania,42,76089,567998,-75.6648973,41.40435932
1311560,15260,Brunswick,Georgia,13,15383,114442,-81.47398512,31.14500481
4202000,10900,Allentown,Pennsylvania,42,118032,871229,-75.47554973,40.59611706
4242976,30260,Lewisburg,Pennsylvania,42,5792,42744,-76.89012553,40.96421268
5307695,14740,Bremerton,Washington,53,37729,277673,-122.7121894,47.54357992
5586925,48580,Whitewater,Wisconsin,55,14390,105380,-88.73403989,42.83718608
2707300,14660,Brainerd,Minnesota,27,13590,99222,-94.19827189,46.3552933
5439460,26580,Huntington,West Virginia,54,49138,354304,-82.43438569,38.41090248
1251200,36380,Okeechobee,Florida,12,5621,40412,-80.82979946,27.24134941
1253875,37260,Palatka,Florida,12,10558,74731,-81.6703648,29.64928365
4528870,23860,Georgetown,South Carolina,45,9163,64722,-79.29582751,33.3594784
1250750,36100,Ocala,Florida,12,56315,396415,-82.15114643,29.17802476
4269216,42780,Selinsgrove,Pennsylvania,42,5654,39652,-76.86466392,40.8002937
4934200,25720,Heber,Utah,49,11362,79655,-111.3984144,40.50678427
1672100,41760,Sandpoint,Idaho,16,7365,51414,-116.5613359,48.28222095
3402080,12100,Atlantic City,New Jersey,34,39558,275638,-74.45268342,39.37968107
5107480,13720,Big Stone Gap,Virginia,51,5614,39030,-82.77691084,36.86258859
5363735,43220,Shelton,Washington,53,9834,68166,-123.1126996,47.21879198
4513330,16700,Charleston,South Carolina,45,120083,830529,-79.96315069,32.81496986
1528850,28180,Kapaa,Hawaii,15,10699,73810,-159.3520379,22.09096854
2154084,34460,Mount Sterling,Kentucky,21,6895,47446,-83.94733019,38.06462378
3744800,34340,Mount Airy,North Carolina,37,10388,71403,-80.61545781,36.50833213
2232755,25220,Hammond,Louisiana,22,20019,137048,-90.45627534,30.50611215
4845384,32580,McAllen,Texas,48,129877,888367,-98.24714667,26.22710356
4967000,41620,Salt Lake City,Utah,49,186440,1266191,-111.9300416,40.7774064
808400,14720,Breckenridge,Colorado,8,4540,30565,-106.043298,39.49938716
952000,35300,New Haven,Connecticut,9,129779,869527,-72.92455091,41.31121469
908000,14860,Bridgeport,Connecticut,9,144229,962946,-73.19534681,41.19177158
4767120,42940,Sevierville,Tennessee,47,14807,98789,-83.56771482,35.88723353
4804504,11980,Athens,Texas,48,12710,84511,-95.83213982,32.20406859
956200,35980,Norwich,Connecticut,9,40493,268681,-72.08824983,41.54947392
5003175,12740,Barre,Vermont,50,9052,60048,-72.50829395,44.19969217
4819000,19100,Dallas,Texas,48,1197816,7943685,-96.76637496,32.79338879
5363000,42660,Seattle,Washington,53,608660,4034248,-122.3243513,47.62097546
2302100,12300,Augusta,Maine,23,19136,125540,-69.73187666,44.33409824
5167000,40060,Richmond,Virginia,51,204214,1339182,-77.47555109,37.52944367
4516000,17900,Columbia,South Carolina,45,129272,847686,-80.90370395,34.03762451
4739560,28700,Kingsport,Tennessee,47,48205,311272,-82.54519205,36.52240287
5351300,36500,Olympia,Washington,53,46478,298758,-122.8958953,47.04170902
5405332,13220,Beckley,West Virginia,54,17614,112369,-81.1840429,37.78774451
4962470,39340,Provo,Utah,49,112488,715001,-111.6457412,40.24573849
680588,46020,Truckee,California,6,16180,102293,-120.1848547,39.34546246
1331908,23580,Gainesville,Georgia,13,33804,212692,-83.83026472,34.29017719
4238288,27780,Johnstown,Pennsylvania,42,20978,131441,-78.91934963,40.32576028
668154,42020,San Luis Obispo,California,6,45119,282013,-120.6689097,35.26704338
1522700,27980,Kahului,Hawaii,15,26337,164351,-156.4602808,20.87151663
2829700,25060,Gulfport,Mississippi,28,67793,420782,-89.07034898,30.42702586
457380,39140,Prescott,Arizona,4,39843,246191,-112.4475308,34.58493386
4248360,32740,Meadville,Pennsylvania,42,13388,82670,-80.14679347,41.64759668
4534045,25940,Hilton Head Island,South Carolina,45,37099,228410,-80.74989953,32.18956695
118976,18980,Cullman,Alabama,1,14775,90665,-86.83985208,34.17771492
1254000,37340,Palm Bay,Florida,12,103190,630693,-80.66275821,27.95492966
4236368,26500,Huntingdon,Pennsylvania,42,7093,43281,-78.00975348,40.49995767
2622000,19820,Detroit,Michigan,26,713777,4345761,-83.10238117,42.38338887
3576200,45340,Taos,New Mexico,35,5716,34580,-105.5803467,36.38707294
1237775,29380,Lake City,Florida,12,12046,71908,-82.64707541,30.19008781
1880306,47700,Warsaw,Indiana,18,13559,80826,-85.8478489,41.24428426
4553080,36700,Orangeburg,South Carolina,45,13964,83094,-80.86705672,33.49280857
5549300,31940,Marinette,Wisconsin,55,10968,65254,-87.63265056,45.0869368
2236255,26380,Houma,Louisiana,22,33727,200656,-90.70578447,29.57992768
4236816,26860,Indiana,Pennsylvania,42,13975,82957,-79.15521736,40.62198676
4775320,46100,Tullahoma,Tennessee,47,18655,110412,-86.21727631,35.37207621
4718540,18900,Crossville,Tennessee,47,10795,63522,-85.02936341,35.95261116
2171688,43700,Somerset,Kentucky,21,11196,65795,-84.60893875,37.08155294
2634000,24340,Grand Rapids,Michigan,26,188040,1094198,-85.65568989,42.96148128
5485156,48260,Weirton,West Virginia,54,19746,114235,-80.56708667,40.4060413
1213000,17500,Clewiston,Florida,12,7155,41339,-80.93989655,26.7528761
3921000,19380,Dayton,Ohio,39,141527,812595,-84.1998479,39.77968857
3741420,32000,Marion,North Carolina,37,7838,44753,-82.00135755,35.67751511
3702140,11700,Asheville,North Carolina,37,83393,476072,-82.55367015,35.57038545
667000,41860,San Francisco,California,6,805235,4579599,-122.4430541,37.75616239
3735720,28620,Kill Devil Hills,North Carolina,37,6683,37956,-75.66990494,36.01671
4242168,30140,Lebanon,Pennsylvania,42,25477,144011,-76.42279097,40.34119408
3040075,28060,Kalispell,Montana,30,19927,111814,-114.3261328,48.21557208
5186720,49020,Winchester,Virginia,51,26203,146455,-78.17461449,39.17350625
4207128,14100,Bloomsburg,Pennsylvania,42,14855,83017,-76.4561381,41.00264542
681134,46380,Ukiah,California,6,16075,89783,-123.210478,39.14631628
2676960,44780,Sturgis,Michigan,26,10994,60874,-85.41810055,41.80035598
4133700,25840,Hermiston,Oregon,41,16745,92515,-119.2859825,45.83222111
4243000,30380,Lewistown,Pennsylvania,42,8338,45988,-77.57301075,40.59640955
2638460,25880,Hillsdale,Michigan,26,8305,45762,-84.63559266,41.92662481
2124274,21060,Elizabethtown,Kentucky,21,28531,157026,-85.87688993,37.70301469
1374376,44900,Summerville,Georgia,13,4534,24936,-85.34911259,34.47875435
3912000,15940,Canton,Ohio,39,73007,399316,-81.36777455,40.80761551
5504625,12660,Baraboo,Wisconsin,55,12048,65777,-89.7378451,43.46964994
5505900,13180,Beaver Dam,Wisconsin,55,16214,88282,-88.83114708,43.46879855
504030,12900,Batesville,Arkansas,5,10248,55755,-91.62263062,35.76873251
3739700,31300,Lumberton,North Carolina,37,21542,116663,-79.01865294,34.63114421
2582000,49340,Worcester,Massachusetts,25,181045,980137,-71.80794009,42.27051601
2907966,14700,Branson,Missouri,29,10520,56821,-93.26345438,36.65103152
823300,20780,Edwards,Colorado,8,10266,55285,-106.6182868,39.62148196
4525810,22500,Florence,South Carolina,45,37056,199119,-79.78715153,34.17818045
5415628,17220,Clarksburg,West Virginia,54,16578,88955,-80.32302959,39.28626863
5010675,15540,Burlington,Vermont,50,42417,227521,-73.23138048,44.48767415
1764746,40300,Rochelle,Illinois,17,9574,51351,-89.06339208,41.91944187
5175216,44420,Staunton,Virginia,51,23746,126776,-79.06113889,38.15928764
1210275,15980,Cape Coral,Florida,12,154305,822453,-81.99552907,26.64436072
3955216,35420,New Philadelphia,Ohio,39,17288,91937,-81.44022333,40.48600333
4753000,35460,Newport,Tennessee,47,6945,36879,-83.19773174,35.96173475
4163650,40700,Roseburg,Oregon,41,21181,112297,-123.3517628,43.22321942
3654716,36460,Olean,New York,36,14452,76439,-78.43214116,42.08186409
2857160,38100,Picayune,Mississippi,28,10878,57261,-89.67239878,30.53216764
107000,13820,Birmingham,Alabama,1,212237,1116857,-86.79876142,33.52764673
2226757,22860,Fort Polk South,Louisiana,22,9038,47247,-93.2158956,31.05116156
5311160,16500,Centralia,Washington,53,16336,85370,-122.9694738,46.72252679
3916000,17460,Cleveland,Ohio,39,396815,2063132,-81.68056192,41.47668452
1021200,20100,Dover,Delaware,10,36047,186946,-75.52024446,39.16103723
664000,40900,Sacramento,California,6,466488,2416702,-121.4682846,38.56660017
4154900,36620,Ontario,Oregon,41,11366,58835,-116.9759656,44.02586392
3606607,13780,Binghamton,New York,36,47376,244889,-75.90926767,42.1013964
5114968,16820,Charlottesville,Virginia,51,43475,223825,-78.48551854,38.03748724
174592,45180,Talladega,Alabama,1,15676,80704,-86.09761338,33.43288241
2503690,12700,Barnstable Town,Massachusetts,25,45193,232457,-70.3599749,41.6721825
1928605,22800,Fort Madison,Iowa,19,11051,56807,-91.35094496,40.62069125
127616,22840,Fort Payne,Alabama,1,14012,71998,-85.69659719,34.45573582
3663000,40380,Rochester,New York,36,210565,1081152,-77.61625401,43.16800649
1275375,48100,Wauchula,Florida,12,5001,25645,-81.81025187,27.54693445
1711163,16060,Carbondale,Illinois,17,25902,132693,-89.2238108,37.72198874
976500,45860,Torrington,Connecticut,9,36383,186116,-73.12815487,41.83492524
2113978,16420,Central City,Kentucky,21,5978,30455,-87.12798386,37.29621725
3937842,27160,Jackson,Ohio,39,6397,32586,-82.64931158,39.04597732
2639360,26340,Houghton,Michigan,26,7708,39215,-88.5671813,47.11185922
4152450,35440,Newport,Oregon,41,9989,50813,-124.0523653,44.62309949
4740000,28940,Knoxville,Tennessee,47,178874,907968,-83.94968635,35.96919944
1254700,37460,Panama City,Florida,12,36484,185134,-85.60043797,30.19953268
3902638,11780,Ashtabula,Ohio,39,19124,97014,-80.79836778,41.88061004
4750280,34100,Morristown,Tennessee,47,29137,146172,-83.30052504,36.20464851
101852,11500,Anniston,Alabama,1,23106,115788,-85.81361846,33.67126876
820000,19740,Denver,Colorado,8,600158,2985871,-104.8762494,39.76208631
5347245,34180,Moses Lake,Washington,53,20366,101311,-119.274065,47.12842122
623042,21700,Eureka,California,6,27191,135010,-124.1568355,40.79413526
3761200,43140,Shelby,North Carolina,37,20323,100670,-81.54510114,35.29038141
3666322,42900,Seneca Falls,New York,36,6681,32882,-76.79666302,42.91007039
2258045,36660,Opelousas,Louisiana,22,16634,81773,-92.0850818,30.52797968
5414600,16620,Charleston,West Virginia,54,51400,251914,-81.63224749,38.3484284
4263624,39740,Reading,Pennsylvania,42,88082,430449,-75.92667955,40.33999517
5572925,43020,Shawano,Wisconsin,55,9305,45083,-88.58441437,44.77493763
2938000,28140,Kansas City,Missouri,29,459787,2209494,-94.55388536,39.12334135
1839402,28340,Kendallville,Indiana,18,9862,47367,-85.2578125,41.44408051
5486452,48540,Wheeling,West Virginia,54,28486,136708,-80.6950631,40.07511965
2641420,27100,Jackson,Michigan,26,33534,160066,-84.40374683,42.24311703
2612320,15620,Cadillac,Michigan,26,10355,49409,-85.41634477,44.24938018
1514650,25900,Hilo,Hawaii,15,43263,206315,-155.0863881,19.68857439
5455756,34060,Morgantown,West Virginia,54,29660,141041,-79.94680374,39.63794133
4862168,40100,Rio Grande City,Texas,48,13834,65728,-98.82155114,26.38082176
4730980,24620,Greeneville,Tennessee,47,15062,71405,-82.81977438,36.16798518
2646000,29620,Lansing,Michigan,26,114297,540870,-84.56008856,42.71418396
2874840,46180,Tupelo,Mississippi,28,34546,163043,-88.73183099,34.26912528
4256456,36340,Oil City,Pennsylvania,42,10557,49777,-79.70351901,41.42817163
100988,10700,Albertville,Alabama,1,21160,99423,-86.21067572,34.2633729
4719700,19420,Dayton,Tennessee,47,7191,33730,-85.01205955,35.49117018
2600440,10300,Adrian,Michigan,26,21133,98567,-84.04461747,41.8993673
3980766,47540,Wapakoneta,Ohio,39,9867,45948,-84.19145042,40.56641607
2302795,12620,Bangor,Maine,23,33039,153704,-68.79061161,44.83223877
3676540,46540,Utica,New York,36,62235,288668,-75.22604588,43.09609318
659892,39780,Red Bluff,California,6,14076,65245,-122.2413014,40.1734684
1611260,15420,Burley,Idaho,16,10345,47849,-113.7928511,42.5379078
1201750,11580,Arcadia,Florida,12,7637,35312,-81.85869996,27.22134984
1860822,38500,Plymouth,Indiana,18,10033,46332,-86.31873455,41.34822536
2720906,22260,Fergus Falls,Minnesota,27,13138,60519,-96.07592521,46.28535045
5149784,32300,Martinsville,Virginia,51,13821,63631,-79.86361651,36.6826463
2656320,34740,Muskegon,Michigan,26,38401,176565,-86.25624197,43.22813519
5563250,38420,Platteville,Wisconsin,55,11224,51276,-90.46745216,42.72786518
2404000,12580,Baltimore,Maryland,24,620961,2835672,-76.6144219,39.30504454
5300100,10140,Aberdeen,Washington,53,16896,77038,-123.8094727,46.97573009
4208040,14620,Bradford,Pennsylvania,42,8770,39866,-78.64132279,41.96039183
3771220,47820,Washington,North Carolina,37,9744,44272,-77.05455368,35.55866691
2567000,44140,Springfield,Massachusetts,25,153060,694523,-72.53953417,42.11549175
4528060,23500,Gaffney,South Carolina,45,12414,56121,-81.65574821,35.07420962
2421325,19060,Cumberland,Maryland,24,20859,94122,-78.75846955,39.6514849
3673000,45060,Syracuse,New York,36,145170,653633,-76.14378724,43.04088788
3474000,45940,Trenton,New Jersey,34,84913,380688,-74.76405894,40.22364018
1314500,16340,Cedartown,Georgia,13,9750,43709,-85.2480178,34.02253466
3757260,40460,Rockingham,North Carolina,37,9558,42778,-79.76079949,34.93859557
613945,17340,Clearlake,California,6,15250,68191,-122.6330326,38.95895327
3986548,49300,Wooster,Ohio,39,26119,116559,-81.933384,40.81657681
2839640,29860,Laurel,Mississippi,28,18540,82736,-89.14484145,31.69558211
669196,42200,Santa Maria,California,6,99553,443837,-120.4431676,34.9333182
3611000,15380,Buffalo,New York,36,261310,1161192,-78.84872743,42.90162028
1323872,20060,Douglas,Georgia,13,11589,51355,-82.8543439,31.50652293
669112,42100,Santa Cruz,California,6,59946,264370,-122.0345802,36.97887721
4103150,11820,Astoria,Oregon,41,9477,41695,-123.8052821,46.18565051
3226500,23820,Gardnerville Ranchos,Nevada,32,11312,49628,-119.7426053,38.88718752
3707720,14820,Brevard,North Carolina,37,7609,33355,-82.7264618,35.24387053
2601540,10940,Alma,Michigan,26,9383,41100,-84.65564995,43.37996837
3654881,36580,Oneonta,New York,36,13901,60636,-75.06661678,42.45511815
4741340,29980,Lawrenceburg,Tennessee,47,10428,45415,-87.33248915,35.2496824
1321380,19140,Dalton,Georgia,13,33128,143604,-84.97120059,34.76906209
3678608,48060,Watertown,New York,36,27023,116637,-75.90947021,43.97337334
4159000,38900,Portland,Oregon,41,583776,2509489,-122.6499622,45.53711383
5584475,48140,Wausau,Wisconsin,55,39106,166334,-89.64568237,44.96153159
5335275,28420,Kennewick,Washington,53,73917,311469,-119.1731772,46.19786643
654652,37100,Oxnard,California,6,197899,832605,-119.1819246,34.19622774
439370,29420,Lake Havasu City,Arizona,4,52527,220816,-114.3112772,34.50056071
1607840,13940,Blackfoot,Idaho,16,11899,49923,-112.3454589,43.19400899
621782,20940,El Centro,California,6,42598,178713,-115.5586383,32.78674275
3947628,31930,Marietta,Ohio,39,14085,58901,-81.4465027,39.42405177
1616750,17660,Coeur d'Alene,Idaho,16,44137,183578,-116.7932558,47.70396001
2725118,24330,Grand Rapids,Minnesota,27,10869,45205,-93.53266476,47.23797535
2251410,33740,Monroe,Louisiana,22,48815,202869,-92.07746585,32.51829976
3746340,35100,New Bern,North Carolina,37,29524,122488,-77.07221372,35.09544025
2112160,15820,Campbellsville,Kentucky,21,9108,37772,-85.35103081,37.34457115
5347560,34580,Mount Vernon,Washington,53,31743,131179,-122.3115526,48.42019596
5182000,47260,Virginia Beach,Virginia,51,437994,1806840,-76.04330084,36.73322787
2923752,22100,Farmington,Missouri,29,16240,66969,-90.42874985,37.78206519
5004750,13540,Bennington,Vermont,50,9074,37392,-73.18521046,42.8746194
3756900,40260,Roanoke Rapids,North Carolina,37,15754,64627,-77.64903496,36.44521091
1855116,35860,North Vernon,Indiana,18,6728,27536,-85.63138058,39.0174545
4260000,37980,Philadelphia,Pennsylvania,42,1526006,6241164,-75.13404727,40.00758797
5355365,38820,Port Angeles,Washington,53,19038,77805,-123.4565172,48.11415649
4980090,46860,Vernal,Utah,49,9089,37141,-109.5378628,40.45172471
3912868,16380,Celina,Ohio,39,10400,42348,-84.56280899,40.555065
4115250,18300,Coos Bay,Oregon,41,15967,64990,-124.2330055,43.37893763
2617020,17740,Coldwater,Michigan,26,10945,44531,-84.99885911,41.94655175
4702320,11940,Athens,Tennessee,47,13458,54719,-84.60446905,35.45732141
3340180,29060,Laconia,New Hampshire,33,15951,64781,-71.47748794,43.57237533
1820728,21140,Elkhart,Indiana,18,50949,206890,-85.96200089,41.69114284
462000,40940,Safford,Arizona,4,9566,38779,-109.7005751,32.8317495
2103628,12680,Bardstown,Kentucky,21,11700,47392,-85.45481294,37.81743483
3638264,27460,Jamestown,New York,36,31146,126027,-79.23664839,42.09748861
3700680,10620,Albemarle,North Carolina,37,15903,64153,-80.19193492,35.36008522
1801666,11420,Angola,Indiana,18,8612,34725,-85.00504412,41.64324362
1324376,20140,Dublin,Georgia,13,16201,65267,-82.9278789,32.53588297
4872368,45500,Texarkana,Texas,48,36411,146408,-94.08144481,33.44865643
2640960,27020,Iron Mountain,Michigan,26,7624,30562,-88.05990174,45.82750664
2240735,29180,Lafayette,Louisiana,22,120623,481125,-92.03232594,30.20838632
3240000,29820,Las Vegas,Nevada,32,583756,2322985,-115.2653241,36.23322829
1608830,14260,Boise City,Idaho,16,205671,811336,-116.2311433,43.60068478
3658574,38460,Plattsburgh,New York,36,19989,78753,-73.45627625,44.69511985
2131114,23980,Glasgow,Kentucky,21,14028,55224,-85.9262803,37.00473711
2629000,22420,Flint,Michigan,26,102434,401983,-83.69216923,43.02352675
5350360,36020,Oak Harbor,Washington,53,22075,86625,-122.6330669,48.29651762
3525170,21580,Española,New Mexico,35,10224,40048,-106.0669238,36.00406928
2158836,37140,Paducah,Kentucky,21,25024,97999,-88.64352422,37.07111096
541000,30780,Little Rock,Arkansas,5,193524,757615,-92.35794602,34.7255075
126896,22520,Florence,Alabama,1,39319,153911,-87.66540497,34.83026449
3932340,24820,Greenville,Ohio,39,13227,51529,-84.62087507,40.1042797
4281000,47620,Warren,Pennsylvania,42,9710,37808,-79.1444849,41.84334745
3345140,31700,Manchester,New Hampshire,33,109565,426594,-71.44470348,42.98477197
5424580,21180,Elkins,West Virginia,54,7094,27600,-79.8540511,38.92372672
5107784,13980,Blacksburg,Virginia,51,42620,165812,-80.42786033,37.22998561
5377105,48300,Wenatchee,Washington,53,31925,124118,-120.3286347,47.43380111
4244128,30820,Lock Haven,Pennsylvania,42,9772,37931,-77.45212602,41.13653972
4839148,28660,Killeen,Texas,48,127921,496228,-97.72971046,31.07545876
681666,46700,Vallejo,California,6,115942,448747,-122.2359016,38.1133279
5549675,49220,Marshfield,Wisconsin,55,19118,73993,-90.17277567,44.66269199
4716920,18260,Cookeville,Tennessee,47,30435,117415,-85.51137089,36.14842522
2252040,34020,Morgan City,Louisiana,22,12404,47789,-91.19199922,29.70410425
1738934,28100,Kankakee,Illinois,17,27537,106074,-87.86432414,41.1020159
4285312,48700,Williamsport,Pennsylvania,42,29381,113104,-77.03713827,41.239772
2608300,13660,Big Rapids,Michigan,26,10601,40720,-85.48056723,43.69915694
682954,47300,Visalia,California,6,124442,477544,-119.3269315,36.32764245
1817074,19540,Decatur,Indiana,18,9405,36068,-84.92817465,40.82858777
1380956,48180,Waycross,Georgia,13,14649,55782,-82.35792586,31.21083646
1919000,19340,Davenport,Iowa,19,99685,379374,-90.6052399,41.55628164
2205000,12940,Baton Rouge,Louisiana,22,229493,873060,-91.13103323,30.44180874
832155,24540,Greeley,Colorado,8,92889,350176,-104.7705429,40.41516016
2831020,25620,Hattiesburg,Mississippi,28,45989,173359,-89.31696938,31.30735978
4273808,44300,State College,Pennsylvania,42,42034,158425,-77.85679059,40.79095464
3712000,16740,Charlotte,North Carolina,37,731424,2756069,-80.8304509,35.2076745
1312456,15660,Calhoun,Georgia,13,15650,58954,-84.93906594,34.49172693
5640120,27220,Jackson,Wyoming,56,9577,35831,-110.7744679,43.47208763
1974415,44020,Spirit Lake,Iowa,19,4840,18028,-95.11090985,43.41757575
4108650,15060,Brookings,Oregon,41,6336,23598,-124.300222,42.06974399
4549570,35140,Newberry,South Carolina,45,10277,38247,-81.60122193,34.28218658
3604715,12860,Batavia,New York,36,15465,57535,-78.18015628,42.99866617
3953102,34540,Mount Vernon,Ohio,39,16990,63183,-82.47318315,40.38536248
5666220,40180,Riverton,Wyoming,56,10615,39472,-108.4141532,43.04248952
4867496,43300,Sherman,Texas,48,38521,143131,-96.61949609,33.62649999
1837782,27540,Jasper,Indiana,18,15038,55800,-86.94043638,38.39336043
2208150,14220,Bogalusa,Louisiana,22,12232,45025,-89.86326223,30.78118356
3755000,39580,Raleigh,North Carolina,37,403892,1484338,-78.64379531,35.83232398
646898,32900,Merced,California,6,78958,290014,-120.4778719,37.30570221
2937592,27900,Joplin,Missouri,29,50150,184086,-94.50059139,37.07587519
2638640,26090,Holland,Michigan,26,33051,121210,-86.09844481,42.76772676
4809328,14300,Bonham,Texas,48,10127,37125,-96.19006257,33.58801855
5061225,40860,Rutland,Vermont,50,16495,60366,-72.97814813,43.60913355
2670520,40980,Saginaw,Michigan,26,51508,188330,-83.95007412,43.41989252
3314200,18180,Concord,New Hampshire,33,42695,156020,-71.55952881,43.23052387
4253368,35260,New Castle,Pennsylvania,42,23273,84849,-80.34578399,40.99563839
2649640,31220,Ludington,Michigan,26,8076,29409,-86.44338187,43.95728731
2150898,32460,Mayfield,Kentucky,21,10024,36412,-88.64466687,36.73703348
2255000,35380,New Orleans,Louisiana,22,343829,1246176,-89.92901228,30.06863571
4843888,30980,Longview,Texas,48,80455,291219,-94.76216117,32.51921328
4822864,20900,El Campo,Texas,48,11602,41824,-96.27249838,29.19857086
103004,12120,Atmore,Alabama,1,10194,36666,-87.47629835,31.09260091
5583975,48020,Watertown,Wisconsin,55,23861,85784,-88.72849286,43.18930323
1921000,19780,Des Moines,Iowa,19,203433,729053,-93.61049335,41.57245354
2700928,10820,Alexandria,Minnesota,27,11070,39668,-95.37661746,45.87764911
3910996,15740,Cambridge,Ohio,39,10635,38098,-81.58675844,40.02212796
2925264,22780,Fort Leonard Wood,Missouri,29,15061,53941,-92.12737691,37.75620896
168736,42460,Scottsboro,Alabama,1,14770,52891,-86.04916645,34.64382063
3964304,39020,Portsmouth,Ohio,39,20226,72194,-82.94459111,38.75385794
1772546,44580,Sterling,Illinois,17,15370,54658,-89.69521862,41.79966273
4837216,27380,Jacksonville,Texas,48,14544,51645,-95.26173519,31.96421012
1848798,33140,Michigan City,Indiana,18,31479,111675,-86.87052807,41.7098187
617022,18860,Crescent City,California,6,7643,27082,-124.1902516,41.77264813
3709060,15500,Burlington,North Carolina,37,49963,176353,-79.46876609,36.07619907
1344340,29300,LaGrange,Georgia,13,29588,104279,-85.03838629,33.02741363
453700,37740,Payson,Arizona,4,15301,53922,-111.3195293,34.24335959
2642160,28020,Kalamazoo,Michigan,26,74262,261173,-85.58815484,42.27486836
3928826,23380,Fremont,Ohio,39,16734,58667,-83.11461881,41.35331071
530460,25460,Harrison,Arkansas,5,12943,45362,-93.1197943,36.24379372
3901000,10420,Akron,Ohio,39,199110,697627,-81.52188382,41.07978704
1714000,16980,Chicago,Illinois,17,2695598,9441957,-87.68590657,41.83705825
3914184,17060,Chillicothe,Ohio,39,21901,76606,-82.99367082,39.33929572
4835000,26420,Houston,Texas,48,2099451,7340118,-95.3905629,29.7865324
3638077,27060,Ithaca,New York,36,30014,104777,-76.50318346,42.44415571
2937000,27620,Jefferson City,Missouri,29,43079,150350,-92.17590939,38.56764263
5147672,31340,Lynchburg,Virginia,51,75568,263613,-79.19085547,37.40025567
2705068,13420,Bemidji,Minnesota,27,13431,46799,-94.87882253,47.48298907
2165226,40080,Richmond,Kentucky,21,31364,109231,-84.29255521,37.73057981
455000,38060,Phoenix,Arizona,4,1445632,5015678,-112.0890618,33.57150121
2220610,19760,DeRidder,Louisiana,22,10578,36570,-93.29312309,30.84666431
1759000,37900,Peoria,Illinois,17,115007,396466,-89.61553182,40.75204013
3905130,13340,Bellefontaine,Ohio,39,13370,46040,-83.76300468,40.36270889
101132,10760,Alexander City,Alabama,1,14875,51143,-85.93607143,32.92419775
1802674,12140,Auburn,Indiana,18,12731,43731,-85.05590373,41.36662289
4714000,16860,Chattanooga,Tennessee,47,167674,574507,-85.24878567,35.06567472
3957302,35940,Norwalk,Ohio,39,17012,58218,-82.60880865,41.24427896
547390,34260,Mountain Home,Arkansas,5,12448,42435,-92.38458131,36.33485096
2119882,19220,Danville,Kentucky,21,16218,55264,-84.77694392,37.64195723
4752006,34980,Nashville-Davidson metropolitan government (balance),Tennessee,47,601222,2046828,-86.78419126,36.17129472
563020,42620,Searcy,Arkansas,5,22858,77755,-91.7350737,35.24180454
644000,31080,Los Angeles,California,6,3792621,12872322,-118.4064666,34.1134718
2978928,48460,West Plains,Missouri,29,11986,40631,-91.86801803,36.73780189
1379388,47080,Vidalia,Georgia,13,10473,35492,-82.40185754,32.21253957
103076,12220,Auburn,Alabama,1,53380,180773,-85.48985117,32.60863059
3988084,49780,Zanesville,Ohio,39,25487,86113,-82.0133187,39.95672186
2717000,20260,Duluth,Minnesota,27,86265,291323,-92.13938447,46.7755632
1840788,29200,Lafayette,Indiana,18,67140,226452,-86.85930314,40.399031
1804114,13260,Bedford,Indiana,18,13413,45222,-86.48952214,38.86023292
5502375,11540,Appleton,Wisconsin,55,72623,244845,-88.38945488,44.27736407
4139700,28900,Klamath Falls,Oregon,41,20840,70212,-121.7754285,42.21911009
807850,14500,Boulder,Colorado,8,97385,327468,-105.2523375,40.02486002
3629443,24100,Gloversville,New York,36,15665,52669,-74.34652245,43.04909907
2836000,27140,Jackson,Mississippi,28,173514,583197,-90.21250491,32.31620623
3910030,15340,Bucyrus,Ohio,39,12362,41522,-82.97184719,40.80543883
4134900,26220,Hood River,Oregon,41,7167,24048,-121.5258313,45.70921755
822035,20420,Durango,Colorado,8,16887,56607,-107.870309,37.27437559
3985792,48940,Wilmington,Ohio,39,12520,41964,-83.81844969,39.43866515
3008950,14580,Bozeman,Montana,30,37280,124857,-111.0549268,45.68281439
1367984,41220,St. Marys,Georgia,13,17121,57013,-81.57215942,30.75665613
4570405,44940,Sumter,South Carolina,45,40524,134925,-80.39292937,33.93916653
4738320,27740,Johnson City,Tennessee,47,63152,210256,-82.38031111,36.34056824
4807000,13140,Beaumont,Texas,48,118296,393575,-94.14509075,30.08488669
157648,37120,Ozark,Alabama,1,14907,49544,-85.6472598,31.45076746
1236550,28580,Key West,Florida,12,24649,81708,-81.77681553,24.56367252
3339300,28300,Keene,New Hampshire,33,23409,77350,-72.29972118,42.94936543
3979072,46500,Urbana,Ohio,39,11793,38709,-83.75406257,40.10885851
1634390,25200,Hailey,Idaho,16,7960,26019,-114.3000248,43.51412498
3918868,18740,Coshocton,Ohio,39,11216,36571,-81.84795077,40.26182
1962040,37800,Pella,Iowa,19,10352,33642,-92.91774657,41.4051116
5168000,40220,Roanoke,Virginia,51,97032,314340,-79.95804126,37.27847139
4741860,30280,Lewisburg,Tennessee,47,11100,35878,-86.78954813,35.44933365
4945860,30860,Logan,Utah,49,48174,155362,-111.8419211,41.7400292
3528460,23700,Gallup,New Mexico,35,21678,69830,-108.742279,35.51832804
3726880,24140,Goldsboro,North Carolina,37,36437,117286,-77.9719796,35.37773249
543610,31680,Malvern,Arkansas,5,10318,33203,-92.81866161,34.3689223
3707080,14380,Boone,North Carolina,37,17122,55089,-81.6668392,36.21110501
2603000,11460,Ann Arbor,Michigan,26,113934,366376,-83.73120287,42.27549064
1353060,34220,Moultrie,Georgia,13,14268,45762,-83.77081074,31.15913049
1871000,43780,South Bend,Indiana,18,101168,323637,-86.26912832,41.67705724
2108902,14540,Bowling Green,Kentucky,21,58067,185682,-86.43749449,36.97148782
4756720,37540,Paris,Tennessee,47,10156,32379,-88.30652201,36.2933281
1304204,12260,Augusta-Richmond County,Georgia,13,195844,624083,-82.07076872,33.36439668
3224900,22280,Fernley,Nevada,32,19368,61585,-119.1927311,39.56103798
5531000,24580,Green Bay,Wisconsin,55,104057,330292,-87.98958128,44.51504932
1258715,38940,Port St. Lucie,Florida,12,164603,520710,-80.38835365,27.27956353
1376756,45740,Toccoa,Georgia,13,8491,26767,-83.32557125,34.58072871
3305140,13620,Berlin,New Hampshire,33,10051,31504,-71.25994489,44.4868841
2200975,10780,Alexandria,Louisiana,22,47723,149189,-92.47014864,31.2922424
1859328,37940,Peru,Indiana,18,11417,35674,-86.07144475,40.75852971
2651900,32100,Marquette,Michigan,26,21355,66661,-87.4081845,46.54400617
4715400,17420,Cleveland,Tennessee,47,41285,128479,-84.87071894,35.18174133
2959096,38740,Poplar Bluff,Missouri,29,17023,52882,-90.41356172,36.7632092
4854708,37300,Palestine,Texas,48,18712,58064,-95.6471204,31.75441805
2843280,32620,McComb,Mississippi,28,12790,39644,-90.47142912,31.24487299
4745100,32660,McMinnville,Tennessee,47,13605,42026,-85.7812324,35.68633756
2338740,30340,Lewiston,Maine,23,36592,113023,-70.16806282,44.09143918
2238355,27660,Jennings,Louisiana,22,10383,32026,-92.65819335,30.22331279
3035600,25740,Helena,Montana,30,28190,86658,-112.0199207,46.59648885
1369000,42340,Savannah,Georgia,13,136286,418373,-81.17843836,32.0279862
177256,46220,Tuscaloosa,Alabama,1,90468,277494,-87.52655333,33.23464618
2756896,41060,St. Cloud,Minnesota,27,65842,201868,-94.17180752,45.53391743
4805000,12420,Austin,Texas,48,790390,2421115,-97.75172102,30.30038084
1376168,45580,Thomaston,Georgia,13,9170,28086,-84.32716626,32.89077342
3222500,21220,Elko,Nevada,32,18297,55909,-115.767387,40.83866303
5340245,31020,Longview,Washington,53,36648,111956,-122.9629608,46.14598145
2970000,44180,Springfield,Missouri,29,159498,487061,-93.29151369,37.19426862
4072100,45140,Tahlequah,Oklahoma,40,15753,48098,-94.97727514,35.9115993
2854840,37060,Oxford,Mississippi,28,18916,57615,-89.52857724,34.36088581
1875428,45460,Terre Haute,Indiana,18,60785,184875,-87.37626062,39.46538841
3976778,45660,Tiffin,Ohio,39,17963,54632,-83.1804901,41.11652545
4022050,20460,Durant,Oklahoma,40,15856,48182,-96.39377514,33.99569424
811810,15860,Cañon City,Colorado,8,16400,49621,-105.2204258,38.44293453
1342268,27700,Jesup,Georgia,13,10214,30896,-81.8897755,31.59908023
224230,21820,Fairbanks,Alaska,2,31535,95356,-147.6533783,64.835281
561670,40780,Russellville,Arkansas,5,27920,84194,-93.13829814,35.27627478
2014600,17700,Coffeyville,Kansas,20,10295,30996,-95.61795208,37.0519188
3224100,21980,Fallon,Nevada,32,8606,25843,-118.7780971,39.4738245
3775000,49180,Winston-Salem,North Carolina,37,229617,688471,-80.26100794,36.10287805
5426452,21900,Fairmont,West Virginia,54,18704,55952,-80.14910463,39.47675563
4530895,24940,Greenwood,South Carolina,45,23222,69267,-82.1542045,34.19450108
1761015,38700,Pontiac,Illinois,17,11931,35521,-88.64144895,40.88808124
1380508,47580,Warner Robins,Georgia,13,66588,198193,-83.65261715,32.5975019
1774574,45380,Taylorville,Illinois,17,11246,33436,-89.28036844,39.53275368
2128900,23180,Frankfort,Kentucky,21,25527,75831,-84.86435183,38.19243222
4815976,17780,College Station,Texas,48,93857,277824,-96.29596324,30.58522062
4147000,32780,Medford,Oregon,41,74907,221644,-122.8536491,42.33718803
3734200,27340,Jacksonville,North Carolina,37,70145,207298,-77.39397885,34.72865362
3882660,47420,Wahpeton,North Dakota,38,7766,22930,-96.61180839,46.27219713
1571550,46520,Urban Honolulu,Hawaii,15,337256,995638,-157.8459724,21.32934645
5548000,31540,Madison,Wisconsin,55,233209,687077,-89.39235566,43.08265628
2850440,35020,Natchez,Mississippi,28,15792,46524,-91.38668009,31.54369231
2606020,13020,Bay City,Michigan,26,34932,102821,-83.88861166,43.59030616
1351492,33300,Milledgeville,Georgia,13,17715,52022,-83.24143471,33.08741523
3530490,24380,Grants,New Mexico,35,9182,26950,-107.8334962,35.15383359
1373256,44340,Statesboro,Georgia,13,28422,83059,-81.77500439,32.43756597
2753620,39860,Red Wing,Minnesota,27,16459,48013,-92.6035676,44.58157287
1639700,26820,Idaho Falls,Idaho,16,56813,165608,-112.0363071,43.48713903
2626360,21540,Escanaba,Michigan,26,12616,36741,-87.09000814,45.7476804
3719000,20500,Durham,North Carolina,37,228330,664310,-78.90315097,35.97937006
3728000,24660,Greensboro,North Carolina,37,269666,784101,-79.82680367,36.09559328
1880504,47780,Washington,Indiana,18,11509,33418,-87.17206629,38.65916484
2720546,22060,Faribault,Minnesota,27,23352,67693,-93.27864555,44.29852573
3720580,21020,Elizabeth City,North Carolina,37,18683,54148,-76.23602404,36.29424094
1879370,47340,Wabash,Indiana,18,10666,30828,-85.83006853,40.80339225
3970380,41780,Sandusky,Ohio,39,25793,74501,-82.71494713,41.44368281
2977092,47660,Warrensburg,Missouri,29,18838,54368,-93.72767647,38.76194566
4746240,32280,Martin,Tennessee,47,11473,33063,-88.85123203,36.33857335
2241155,29340,Lake Charles,Louisiana,22,71993,207320,-93.21416123,30.20222484
664224,41500,Salinas,California,6,150441,432858,-121.631737,36.68843779
670098,42220,Santa Rosa,California,6,167815,482650,-122.7066742,38.44584686
4505680,13500,Bennettsville,South Carolina,45,9069,26039,-79.68737729,34.63036012
524550,22900,Fort Smith,Arkansas,5,86209,247072,-94.36947026,35.34926715
466820,43420,Sierra Vista,Arizona,4,43888,125663,-110.3153905,31.56295279
5367000,44060,Spokane,Washington,53,208916,597919,-117.4330034,47.66705084
2553960,38340,Pittsfield,Massachusetts,25,44737,127859,-73.26052062,42.45169967
137000,26620,Huntsville,Alabama,1,180105,514465,-86.6412082,34.69878395
5305280,13380,Bellingham,Washington,53,80885,230677,-122.4686839,48.75430611
4159850,39260,Prineville,Oregon,41,9253,26375,-120.8616186,44.29803337
5352215,36830,Othello,Washington,53,7364,20961,-119.1650873,46.82219234
533400,26300,Hot Springs,Arkansas,5,35193,100089,-93.04976045,34.49019556
631960,25260,Hanford,California,6,53967,152981,-119.6544039,36.32634773
1712164,16460,Centralia,Illinois,17,13032,36914,-89.12327039,38.52237673
120104,19460,Decatur,Alabama,1,55683,157425,-86.99051218,34.57296982
3774440,48900,Wilmington,North Carolina,37,106476,300658,-77.88599057,34.21004598
4849800,34420,Mount Pleasant,Texas,48,15564,43924,-94.97168527,33.16124877
5380010,49420,Yakima,Washington,53,91067,257001,-120.5495791,46.59233455
4164900,41420,Salem,Oregon,41,154637,436317,-123.0245207,44.92314675
1271625,45540,The Villages,Florida,12,51442,144970,-81.98881659,28.90206981
686972,49700,Yuba City,California,6,64925,182813,-121.6381276,39.13573918
5462140,37620,Parkersburg,West Virginia,54,31492,88431,-81.54192008,39.26233957
5551025,32860,Menomonie,Wisconsin,55,16264,45651,-91.90844538,44.88932346
1225175,23540,Gainesville,Florida,12,124354,348282,-82.34574961,29.68038977
128696,23460,Gadsden,Alabama,1,36856,103088,-86.01556787,34.00898708
5135624,25500,Harrisonburg,Virginia,51,48914,136555,-78.87345912,38.4361961
4775940,46460,Union City,Tennessee,47,10895,30394,-89.04743186,36.42680481
3624229,21300,Elmira,New York,36,29200,81426,-76.80965614,42.09376465
4737640,27180,Jackson,Tennessee,47,65211,181579,-88.83528371,35.6535143
1722736,20820,Effingham,Illinois,17,12328,34325,-88.55090484,39.12066171
2808820,15020,Brookhaven,Mississippi,28,12513,34717,-90.44323907,31.58031826
1712385,16580,Champaign,Illinois,17,81055,223265,-88.2735406,40.11437764
1845990,31500,Madison,Indiana,18,11967,32946,-85.39713204,38.75804358
2601740,10980,Alpena,Michigan,26,10483,28847,-83.43991647,45.07399415
1378800,46660,Valdosta,Georgia,13,54518,149849,-83.27882013,30.85021782
3918000,18140,Columbus,Ohio,39,787033,2161511,-82.98507459,39.98590738
3730660,25780,Henderson,North Carolina,37,15368,42138,-78.41550568,36.32588015
648354,33700,Modesto,California,6,201165,551275,-121.0029219,37.63731604
1366668,40660,Rome,Georgia,13,36303,99443,-85.18617786,34.26613145
533190,26260,Hope,Arkansas,5,10095,27634,-93.58951404,33.66819044
4880716,49820,Zapata,Texas,48,5089,13849,-99.26119793,26.90266786
675000,44700,Stockton,California,6,291707,793229,-121.311093,37.97657608
4965330,41100,St. George,Utah,49,72897,197680,-113.5769803,37.07693108
5540775,29100,La Crosse,Wisconsin,55,51320,139094,-91.22674391,43.82403853
3603078,12180,Auburn,New York,36,27687,74998,-76.56845242,42.9338345
831660,24300,Grand Junction,Colorado,8,58566,158636,-108.5672562,39.08768652
1667420,39940,Rexburg,Idaho,16,25484,68954,-111.792359,43.82217286
1852740,35220,New Castle,Indiana,18,18114,48915,-85.36974953,39.91902114
1682810,46300,Twin Falls,Idaho,16,44125,119007,-114.4617148,42.5647445
4105800,13460,Bend,Oregon,41,76639,206549,-121.3087327,44.05617744
4827984,23620,Gainesville,Texas,48,16002,43050,-97.14873554,33.6390597
3573260,43500,Silver City,New Mexico,35,10315,27686,-108.2698197,32.77835731
1822000,21780,Evansville,Indiana,18,117429,314038,-87.53407023,37.98808454
3602066,11220,Amsterdam,New York,36,18620,49623,-74.1906872,42.94196242
2412400,15700,Cambridge,Maryland,24,12326,32726,-76.07868371,38.55149263
3979562,46780,Van Wert,Ohio,39,10846,28769,-84.58728577,40.86531211
2739878,31860,Mankato,Minnesota,27,39309,104072,-93.97732312,44.17113095
5577200,44620,Stevens Point,Wisconsin,55,26717,70718,-89.55076073,44.52407191
1868832,42980,Seymour,Indiana,18,17503,46300,-85.89124781,38.94773827
3722920,22180,Fayetteville,North Carolina,37,200564,529318,-78.97755449,35.08460823
4075000,46140,Tulsa,Oklahoma,40,391906,1034123,-95.90426965,36.12831963
1938595,26980,Iowa City,Iowa,19,67862,178991,-91.53035886,41.65590181
603526,12540,Bakersfield,California,6,347483,916108,-119.0359909,35.35293657
5522300,20740,Eau Claire,Wisconsin,55,65883,173644,-91.49507277,44.82001526
4224000,21500,Erie,Pennsylvania,42,101786,267689,-80.07327738,42.11675854
3525800,22140,Farmington,New Mexico,35,45877,120418,-108.1822965,36.75548492
5553000,33340,Milwaukee,Wisconsin,55,594833,1559792,-87.96720576,43.06406285
3947138,31900,Mansfield,Ohio,39,47821,125319,-82.52748181,40.76555215
4202184,11020,Altoona,Pennsylvania,42,46320,121032,-78.40073627,40.50821638
1836003,26900,Indianapolis city (balance),Indiana,18,820445,2141779,-86.14576957,39.77698756
4827348,23240,Fredericksburg,Texas,48,10530,27477,-98.87568165,30.26712402
645022,31460,Madera,California,6,61416,160256,-120.0802666,36.96399253
3943554,30620,Lima,Ohio,39,38771,101115,-84.11209118,40.74094934
4101000,10540,Albany,Oregon,41,50158,130467,-123.0966041,44.62744327
1712567,16660,Charleston,Illinois,17,21838,56658,-88.17751801,39.48423637
4660020,43940,Spearfish,South Dakota,46,10494,27214,-103.8166512,44.49118595
2911242,16020,Cape Girardeau,Missouri,29,37941,98275,-89.55963996,37.31076664
3886220,48780,Williston,North Dakota,38,14716,38109,-103.6363904,48.18141491
2730644,26780,Hutchinson,Minnesota,27,14178,36714,-94.37679544,44.88556695
827810,22820,Fort Morgan,Colorado,8,11315,29239,-103.7918709,40.25385403
5560500,36780,Oshkosh,Wisconsin,55,66083,170718,-88.56167319,44.02279835
1338964,25980,Hinesville,Georgia,13,33437,86378,-81.61350204,31.82465173
5537825,27500,Janesville,Wisconsin,55,63575,164060,-89.01363803,42.68549473
4079450,48220,Weatherford,Oklahoma,40,10833,27886,-98.68719858,35.53843249
2870240,44260,Starkville,Mississippi,28,23888,61420,-88.8297125,33.46077351
2671740,42300,Sault Ste. Marie,Michigan,26,14144,36293,-84.37231359,46.48168638
4870208,44500,Stephenville,Texas,48,17123,43895,-98.22049947,32.21476034
3902568,11740,Ashland,Ohio,39,20362,52181,-82.31573162,40.86689978
851745,33940,Montrose,Colorado,8,19132,48911,-107.8589368,38.46900117
4767760,43180,Shelbyville,Tennessee,47,20335,51950,-86.4516397,35.49867743
4801852,10860,Alice,Texas,48,19104,48714,-98.06527393,27.75559104
827425,22660,Fort Collins,Colorado,8,143986,366778,-105.0651042,40.54748247
2605920,12980,Battle Creek,Michigan,26,52347,133289,-85.2296527,42.29855706
2044250,31740,Manhattan,Kansas,20,52281,133072,-96.60474827,39.1885047
3565210,40760,Ruidoso,New Mexico,35,8029,20411,-105.6432831,33.36470869
4130550,24420,Grants Pass,Oregon,41,34533,87730,-123.3316375,42.43331283
1376476,45700,Tifton,Georgia,13,16350,41412,-83.52055442,31.46244905
4715160,17300,Clarksville,Tennessee,47,132929,336605,-87.34277588,36.56959423
3735920,28820,Kinston,North Carolina,37,21677,54633,-77.59366097,35.27475646
4055000,36420,Oklahoma City,Oklahoma,40,579999,1459380,-97.51355144,35.46753289
3126910,30420,Lexington,Nebraska,31,10230,25692,-99.74615504,40.7779865
2941168,30060,Lebanon,Missouri,29,14474,36313,-92.66032351,37.67174462
2938306,28380,Kennett,Missouri,29,10932,27406,-90.04812389,36.2402875
3757500,40580,Rocky Mount,North Carolina,37,57477,144090,-77.80469478,35.96756749
666000,41740,San Diego,California,6,1307402,3276208,-117.1224699,32.83069693
4874144,46340,Tyler,Texas,48,96900,241922,-95.30646915,32.31837363
3476070,47220,Vineland,New Jersey,34,60724,151356,-74.99806794,39.46523937
507330,14180,Blytheville,Arkansas,5,15620,38896,-89.90513302,35.93214728
5321240,21260,Ellensburg,Washington,53,18174,45189,-120.5469694,46.99937587
3144245,42420,Scottsbluff,Nebraska,31,15039,37390,-103.6618883,41.86841498
4845072,31260,Lufkin,Texas,48,35067,87101,-94.727739,31.32166117
5566000,39540,Racine,Wisconsin,55,78860,195846,-87.81351703,42.72739406
2656020,34380,Mount Pleasant,Michigan,26,26016,64447,-84.77594417,43.59660984
3902736,11900,Athens,Ohio,39,23832,58979,-82.09875078,39.32692973
1376224,45620,Thomasville,Georgia,13,18413,45561,-83.97825012,30.83934811
4066800,43060,Shawnee,Oklahoma,40,29857,73533,-96.96471606,35.35245007
1982425,47940,Waterloo,Iowa,19,68406,167889,-92.35219123,42.49194336
3825700,22020,Fargo,North Dakota,38,105549,258663,-96.82917626,46.86522611
4123850,21660,Eugene,Oregon,41,156185,382353,-123.1172853,44.05629738
4870904,44860,Sulphur Springs,Texas,48,15449,37804,-95.61242518,33.14205424
2815380,18060,Columbus,Mississippi,28,23640,57603,-88.40967199,33.50877938
4810768,15180,Brownsville,Texas,48,175023,425208,-97.45651898,25.99791608
4002600,11620,Ardmore,Oklahoma,40,24283,58728,-97.12534112,34.19429402
5526275,22540,Fond du Lac,Wisconsin,55,43021,103836,-88.4397125,43.77180232
5548500,31820,Manitowoc,Wisconsin,55,33736,81172,-87.68107473,44.09907585
613014,17020,Chico,California,6,86187,207303,-121.8152548,39.75747447
4839040,28500,Kerrville,Texas,48,22347,53741,-99.13184272,30.03977465
1815742,18820,Crawfordsville,Indiana,18,15915,38273,-86.89751037,40.04283588
3618388,18660,Cortland,New York,36,19204,46126,-76.17843034,42.60036639
3651000,35620,New York,New York,36,8175133,19617869,-73.92513312,40.69410183
5572975,43100,Sheboygan,Wisconsin,55,49288,117841,-87.73162339,43.74029458
3137000,36540,Omaha,Nebraska,31,408958,976671,-96.04985176,41.26278645
2829340,24900,Greenwood,Mississippi,28,15205,36301,-90.19927561,33.51257155
1751180,34500,Mount Vernon,Illinois,17,15277,36400,-88.91738458,38.31404595
2814260,17380,Cleveland,Mississippi,28,12334,29370,-90.72847379,33.74399076
2424475,20660,Easton,Maryland,24,15945,37932,-76.07016224,38.77601326
5121344,19260,Danville,Virginia,51,43055,102181,-79.40874781,36.58307739
4044800,32540,McAlester,Oklahoma,40,18383,43613,-95.76983126,34.9262203
4807192,13300,Beeville,Texas,48,12863,30394,-97.74941226,28.40589292
4962030,39220,Price,Utah,49,8715,20571,-110.8003765,39.60399618
2815700,18420,Corinth,Mississippi,28,14573,34204,-88.5143494,34.94736819
449640,35700,Nogales,Arizona,4,20837,48759,-110.9335896,31.36235576
3284800,49080,Winnemucca,Nevada,32,7396,17272,-117.7246954,40.96452102
4267344,41260,St. Marys,Pennsylvania,42,13070,30477,-78.5342669,41.45741425
3759280,41820,Sanford,North Carolina,37,28094,65476,-79.17719739,35.48736149
121184,20020,Dothan,Alabama,1,65496,152517,-85.40682401,31.23347823
2834740,26940,Indianola,Mississippi,28,10683,24811,-90.64466026,33.44917611
2967790,43460,Sikeston,Missouri,29,16318,37840,-89.58697585,36.88745239
2962912,40620,Rolla,Missouri,29,19559,45313,-91.76080538,37.94580794
3921308,19580,Defiance,Ohio,39,16494,38187,-84.36594449,41.2809839
3512150,16100,Carlsbad,New Mexico,35,26138,60400,-104.238846,32.40124222
2846640,32940,Meridian,Mississippi,28,41148,94829,-88.68966126,32.38453907
4810156,14780,Brenham,Texas,48,15716,36159,-96.39648005,30.15861246
1829718,24700,Greensburg,Indiana,18,11492,26416,-85.50236571,39.35147115
4817060,18620,Corsicana,Texas,48,23770,54636,-96.46799413,32.08204695
3570500,42140,Santa Fe,New Mexico,35,67947,155664,-105.9820064,35.6618578
3539380,29740,Las Cruces,New Mexico,35,97618,223337,-106.7893701,32.32646478
2149368,31580,Madisonville,Kentucky,21,19591,44812,-87.50336311,37.34103167
1304896,12460,Bainbridge,Georgia,13,12697,28982,-84.5721935,30.90455772
2043950,32700,McPherson,Kansas,20,13155,30012,-97.66056502,38.37138081
2151924,33180,Middlesborough,Kentucky,21,10334,23568,-83.7226806,36.61270652
4876000,47380,Waco,Texas,48,124805,283885,-97.18826026,31.55967852
4000200,10220,Ada,Oklahoma,40,16810,38141,-96.66888219,34.76852507
3501780,10460,Alamogordo,New Mexico,35,30403,68823,-105.9624658,32.88372307
3539940,29780,Las Vegas,New Mexico,35,13753,31122,-105.2205676,35.60112439
3972424,43380,Sidney,Ohio,39,21229,47671,-84.16672439,40.2891108
4048000,33060,Miami,Oklahoma,40,13570,30338,-94.87183646,36.8876858
2770420,48820,Willmar,Minnesota,27,19610,43839,-95.05692114,45.12196491
1706613,14010,Bloomington,Illinois,17,76610,171141,-88.97032033,40.47567321
485540,49740,Yuma,Arizona,4,93064,207842,-114.5487289,32.5989481
3977000,45780,Toledo,Ohio,39,287208,640384,-83.58225049,41.66387531
3974118,44220,Springfield,Ohio,39,60608,134831,-83.79573616,39.92969843
3260600,39900,Reno,Nevada,32,225221,500915,-119.8480619,39.54955316
1846908,31980,Marion,Indiana,18,29948,66022,-85.66000203,40.54960061
4821892,20580,Eagle Pass,Texas,48,26248,57843,-100.4839919,28.71250666
2266655,40820,Ruston,Louisiana,22,21859,48129,-92.63610579,32.53287775
3807200,13900,Bismarck,North Dakota,38,61272,134846,-100.7694956,46.81394386
510720,15780,Camden,Arkansas,5,12183,26744,-92.84669773,33.56723139
1765000,40420,Rockford,Illinois,17,152871,335342,-89.0641316,42.25971571
1718563,19180,Danville,Illinois,17,33027,72337,-87.61137572,40.14225095
423620,22380,Flagstaff,Arizona,4,65870,144060,-111.6194962,35.18720041
150000,33660,Mobile,Alabama,1,195111,426533,-88.11632397,30.67809565
1912000,16300,Cedar Rapids,Iowa,19,126326,275592,-91.67814633,41.96669329
2930214,25300,Hannibal,Missouri,29,17916,38858,-91.39360485,39.70971165
4911320,16260,Cedar City,Utah,49,28857,62429,-113.0956483,37.68340723
1270600,45220,Tallahassee,Florida,12,181376,390992,-84.25267549,30.45500719
1720162,19940,Dixon,Illinois,17,15733,33848,-89.47878113,41.84392497
2148006,31140,Louisville/Jefferson County metro government (balance),Kentucky,21,597337,1284553,-85.6487226,38.16626962
1901855,11180,Ames,Iowa,19,58965,126282,-93.62156884,42.02577189
3737220,29900,Laurinburg,North Carolina,37,15962,34162,-79.47814403,34.75963623
2754880,40340,Rochester,Minnesota,27,106769,228073,-92.47782209,44.01506424
4652980,39660,Rapid City,South Dakota,46,67956,145159,-103.2204976,44.07157595
2154642,34660,Murray,Kentucky,21,17741,37685,-88.32063139,36.61452259
4722200,20540,Dyersburg,Tennessee,47,17145,36410,-89.37773734,36.04652102
3532520,26020,Hobbs,New Mexico,35,34122,72452,-103.1599823,32.7282077
2158620,36980,Owensboro,Kentucky,21,57265,121348,-87.11738834,37.75730703
1835302,26540,Huntington,Indiana,18,17391,36834,-85.50535849,40.88157664
2947648,33020,Mexico,Missouri,29,11543,24434,-91.87116782,39.1626234
5631855,23940,Gillette,Wyoming,56,29087,61366,-105.4983476,44.27519213
1654730,34300,Mountain Home,Idaho,16,14206,29403,-115.697003,43.13244629
873825,44460,Steamboat Springs,Colorado,8,12088,25007,-106.8232724,40.47741516
124184,21460,Enterprise,Alabama,1,26562,54805,-85.84590948,31.3275494
4748000,32820,Memphis,Tennessee,47,646889,1332305,-89.9774252,35.10460104
2053550,36840,Ottawa,Kansas,20,12649,25992,-95.26421279,38.59993567
1646540,30300,Lewiston,Idaho,16,31894,65512,-116.9933398,46.39344124
3728080,24780,Greenville,North Carolina,37,84554,173542,-77.3768012,35.59563208
627000,23420,Fresno,California,6,494665,1015190,-119.7940899,36.78303874
124568,21640,Eufaula,Alabama,1,13137,26955,-85.15057619,31.91013757
4805984,13060,Bay City,Texas,48,17614,36125,-95.96013024,28.98378005
668000,41940,San Jose,California,6,945942,1938524,-121.8486315,37.30198788
4835528,26660,Huntsville,Texas,48,38548,78870,-95.5544341,30.70498766
1844658,30900,Logansport,Indiana,18,18396,37540,-86.35187751,40.7472374
1235000,27260,Jacksonville,Florida,12,821784,1675668,-81.67495761,30.33200216
1911080,16140,Carroll,Iowa,19,10103,20567,-94.86472569,42.0698858
477000,46060,Tucson,Arizona,4,520116,1057597,-110.8781232,32.15433374
3981718,47920,Washington Court House,Ohio,39,14192,28839,-83.4278776,39.53828048
2966440,42740,Sedalia,Missouri,29,21387,43353,-93.23508312,38.70423502
535710,27860,Jonesboro,Arkansas,5,67263,135512,-90.67924983,35.82107436
659920,39820,Redding,California,6,89861,180930,-122.3650179,40.56975633
4855080,37580,Paris,Texas,48,25171,50484,-95.54617329,33.66890185
1805860,14020,Bloomington,Indiana,18,80405,161227,-86.52571609,39.16369578
4140350,29260,La Grande,Oregon,41,13082,26177,-118.0865085,45.32424043
2253545,35060,Natchitoches,Louisiana,22,18323,36663,-93.09788286,31.73168335
4865000,41700,San Antonio,Texas,48,1327407,2655342,-98.52532098,29.46547451
1825324,23140,Frankfort,Indiana,18,16422,32843,-86.51802035,40.27988028
3134615,35740,Norfolk,Nebraska,31,24210,48417,-97.42084784,42.03277315
521070,20980,El Dorado,Arkansas,5,18884,37752,-92.66402156,33.2183641
2653780,33220,Midland,Michigan,26,41863,83674,-84.23158025,43.62390927
4810780,15220,Brownwood,Texas,48,19288,38373,-98.97662199,31.71231905
501870,11660,Arkadelphia,Arkansas,5,10714,21250,-93.07193263,34.12497855
2915670,17860,Columbia,Missouri,29,108500,214630,-92.32557685,38.94772124
4850256,34860,Nacogdoches,Texas,48,32996,64862,-94.65283437,31.61343745
4082150,49260,Woodward,Oklahoma,40,12051,23647,-99.40570753,36.42464234
1302116,11140,Americus,Georgia,13,17041,33373,-84.22489897,32.07361664
3832060,24220,Grand Forks,North Dakota,38,52838,103144,-97.08865153,47.92204075
5375775,47460,Walla Walla,Washington,53,31731,61890,-118.3365087,46.06694973
4172950,45520,The Dalles,Oregon,41,13620,26561,-121.1820279,45.60530626
4856384,37770,Pearsall,Texas,48,9146,17815,-99.09876582,28.88848926
1975630,44740,Storm Lake,Iowa,19,10600,20600,-95.1969577,42.64314313
1879208,47180,Vincennes,Indiana,18,18423,35789,-87.51024033,38.67593076
2270000,43340,Shreveport,Louisiana,22,199311,385154,-93.79589604,32.46588234
2056025,38260,Pittsburg,Kansas,20,20233,39078,-94.69843576,37.41287556
543460,31620,Magnolia,Arkansas,5,11577,22216,-93.22611648,33.27741251
1959925,36820,Oskaloosa,Iowa,19,11463,21946,-92.64029081,41.29218047
1303440,12020,Athens-Clarke County unified government (balance),Georgia,13,115452,220405,-83.36886367,33.95080714
1738115,27300,Jacksonville,Illinois,17,19446,36999,-90.2315738,39.72920447
2746042,35580,New Ulm,Minnesota,27,13522,25723,-94.4679873,44.31194248
1743536,30660,Lincoln,Illinois,17,14504,27591,-89.37205285,40.15085488
3819620,19860,Dickinson,North Dakota,38,17787,33821,-102.7924248,46.89175203
1814734,18020,Columbus,Indiana,18,44061,83540,-85.91832067,39.20932138
1329528,22340,Fitzgerald,Georgia,13,9053,17069,-83.25149479,31.7134704
1301052,10500,Albany,Georgia,13,77434,145786,-84.17620754,31.57757786
4023500,21120,Elk City,Oklahoma,40,11693,22009,-99.4334121,35.38487188
4659020,43620,Sioux Falls,South Dakota,46,153888,289592,-96.73211877,43.5396284
2054675,37660,Parsons,Kansas,20,10500,19757,-95.29592382,37.3404841
2151024,32500,Maysville,Kentucky,21,9011,16930,-83.79107904,38.64543413
151000,33860,Montgomery,Alabama,1,205764,385460,-86.26659951,32.34727182
3853380,33500,Minot,North Dakota,38,40888,76279,-101.2779716,48.2374304
4021900,20340,Duncan,Oklahoma,40,23431,43710,-97.91915472,34.54253353
3125055,28260,Kearney,Nebraska,31,30787,57276,-99.08467549,40.70076619
1955110,34700,Muscatine,Iowa,19,22886,42377,-91.06806444,41.41951965
2740688,32140,Marshall,Minnesota,27,13680,25262,-95.78968003,44.44876719
2720330,21860,Fairmont,Minnesota,27,10666,19650,-94.46208182,43.64406459
5669845,43260,Sheridan,Wyoming,56,17444,32096,-106.9642633,44.79621633
1840392,29020,Kokomo,Indiana,18,45468,83574,-86.12771919,40.4639469
816000,17820,Colorado Springs,Colorado,8,416427,765424,-104.7605751,38.86728033
1762367,39500,Quincy,Illinois,17,40633,74616,-91.37974774,39.93348542
176920,45980,Troy,Alabama,1,18033,33014,-85.96653511,31.80211702
3006550,13740,Billings,Montana,30,104170,190208,-108.5509036,45.78885797
2071000,45820,Topeka,Kansas,20,127473,231783,-95.69547241,39.03458123
3927048,22300,Findlay,Ohio,39,41202,74861,-83.63789562,41.04672879
3050200,33540,Missoula,Montana,30,66788,121041,-114.0094732,46.8684521
4070300,44660,Stillwater,Oklahoma,40,45688,82794,-97.07397225,36.13147156
1973335,43580,Sioux City,Iowa,19,82684,149240,-96.39001827,42.495826
1864260,39980,Richmond,Indiana,18,36812,66273,-84.89042284,39.83174772
1664090,38540,Pocatello,Idaho,16,54255,97585,-112.4651751,42.87160775
5667235,40540,Rock Springs,Wyoming,56,23036,41345,-109.2237229,41.59509678
2771032,49100,Winona,Minnesota,27,27592,49478,-91.66888061,44.05086495
4115800,18700,Corvallis,Oregon,41,54462,97630,-123.2780898,44.56960156
4031750,25100,Guymon,Oklahoma,40,11442,20495,-101.4775923,36.69003902
2876720,46980,Vicksburg,Mississippi,28,23856,42649,-90.88687375,32.31721345
4860836,39700,Raymondville,Texas,48,11284,20143,-97.77690658,26.4758978
553390,37500,Paragould,Arkansas,5,26113,46448,-90.51484426,36.055631
1772000,44100,Springfield,Illinois,17,116250,206655,-89.65373101,39.77089633
169120,42820,Selma,Alabama,1,20756,36767,-87.03362042,32.41657847
1950160,32380,Mason City,Iowa,19,28079,49728,-93.19978539,43.14873622
1319616,18380,Cordele,Georgia,13,11147,19708,-83.76947629,31.95632535
2949034,33620,Moberly,Missouri,29,13974,24622,-92.43650313,39.41896218
2946316,32180,Marshall,Missouri,29,13065,23007,-93.20100414,39.11445271
3947754,32020,Marion,Ohio,39,36837,64642,-83.12364917,40.59325688
2146027,30460,Lexington-Fayette,Kentucky,21,295803,517916,-84.45865684,38.04219255
650258,34900,Napa,California,6,76915,134300,-122.3010675,38.29755264
4848684,33420,Mineral Wells,Texas,48,16788,29239,-98.07764788,32.81687854
3520270,19700,Deming,New Mexico,35,14855,25749,-107.7525001,32.26305418
3103390,13100,Beatrice,Nebraska,31,12459,21583,-96.74545067,40.27374485
1814932,18220,Connersville,Indiana,18,13481,23349,-85.14103005,39.65818102
1909550,15460,Burlington,Iowa,19,25663,44444,-91.12472376,40.80719429
2946640,32340,Maryville,Missouri,29,11972,20670,-94.87083649,40.34280694
555310,38220,Pine Bluff,Arkansas,5,49083,84629,-92.01776826,34.21155391
1914430,17540,Clinton,Iowa,19,26885,46344,-90.24089999,41.84342559
1654550,34140,Moscow,Idaho,16,23800,40978,-116.9986075,46.73073393
4059850,38620,Ponca City,Oklahoma,40,25387,43668,-97.0678828,36.72351057
2771734,49380,Worthington,Minnesota,27,12764,21947,-95.5990005,43.62819614
1922395,20220,Dubuque,Iowa,19,57637,98677,-90.70674917,42.50073454
238970,28540,Ketchikan,Alaska,2,8050,13741,-131.6697991,55.35563606
1319000,17980,Columbus,Georgia,13,189885,324110,-84.87704731,32.50998645
4708920,15140,Brownsville,Tennessee,47,10292,17550,-89.25783781,35.58896541
2700694,10660,Albert Lea,Minnesota,27,18016,30718,-93.36406106,43.65461683
1727884,23300,Freeport,Illinois,17,25638,43627,-89.63476282,42.28924229
2079000,48620,Wichita,Kansas,20,382368,650039,-97.3441454,37.68967073
5613900,16940,Cheyenne,Wyoming,56,59466,100723,-104.7926678,41.14052667
4050050,34780,Muskogee,Oklahoma,40,39223,66354,-95.35664673,35.74301839
3502000,10740,Albuquerque,New Mexico,35,545852,919543,-106.6463267,35.10529558
1825000,23060,Fort Wayne,Indiana,18,253691,426076,-85.14363887,41.08846891
5625620,21740,Evanston,Wyoming,56,12359,20712,-110.9646234,41.26023917
4631060,26700,Huron,South Dakota,46,12592,21026,-98.21023059,44.36220899
677364,45000,Susanville,California,6,17947,29904,-120.6128828,40.4204906
2939026,28860,Kirksville,Missouri,29,17505,29167,-92.57526179,40.19857336
1926445,21840,Fairfield,Iowa,19,9464,15698,-91.96685219,41.00605181
4803216,11380,Andrews,Texas,48,11088,18334,-102.5520421,32.32077196
4669300,47980,Watertown,South Dakota,46,21482,35073,-97.15316443,44.90937808
2879120,48500,West Point,Mississippi,28,11307,18380,-88.6571417,33.6064184
2702908,12380,Austin,Minnesota,27,24718,40140,-92.97612558,43.67217259
4673060,49460,Yankton,South Dakota,46,14454,23373,-97.392603,42.89006947
4600100,10100,Aberdeen,South Dakota,46,26091,42037,-98.46798237,45.46456318
2829460,24980,Grenada,Mississippi,28,13092,21088,-89.81302717,33.78153726
4853388,36220,Odessa,Texas,48,99940,160869,-102.3405941,31.88310347
4858916,38920,Port Lavaca,Texas,48,12248,19706,-96.62784231,28.61809447
4607580,15100,Brookings,South Dakota,46,22056,35484,-96.78594213,44.30222588
1851876,34620,Muncie,Indiana,18,70085,112031,-85.39496758,40.19885883
5356625,39420,Pullman,Washington,53,29799,47619,-117.1669286,46.73401036
3542320,31060,Los Alamos,New Mexico,35,12019,19187,-106.2861676,35.89262757
3774540,48980,Wilson,North Carolina,37,49167,78449,-77.92841003,35.7311484
4848072,33260,Midland,Texas,48,111147,177216,-102.1137597,32.02481856
862000,39380,Pueblo,Colorado,8,106595,169544,-104.6105882,38.27123719
4874588,46620,Uvalde,Texas,48,15751,24940,-99.7782054,29.21529465
3119595,24260,Grand Island,Nebraska,31,48520,76333,-98.35837649,40.92139994
4875428,47020,Victoria,Texas,48,62592,98196,-96.98498218,28.82851601
2028300,24460,Great Bend,Kansas,20,15995,25080,-98.80153671,38.35930295
4842448,30220,Levelland,Texas,48,13542,21161,-102.3635513,33.58058416
2964550,41140,St. Joseph,Missouri,29,76780,119690,-94.82103976,39.7598271
2025325,23780,Garden City,Kansas,20,26658,41505,-100.8528248,37.97541094
3110110,18100,Columbus,Nebraska,31,22111,34296,-97.35610586,41.43606876
3559260,38780,Portales,New Mexico,35,12280,18934,-103.3566337,34.1752973
4643100,33580,Mitchell,South Dakota,46,15254,23434,-98.03371461,43.72959621
4801000,10180,Abilene,Texas,48,117063,179308,-99.73843872,32.45420356
4809556,14420,Borger,Texas,48,13251,20215,-101.401166,35.65981193
4649600,38180,Pierre,South Dakota,46,13646,20691,-100.3204863,44.37480143
1728326,23660,Galesburg,Illinois,17,32195,48640,-90.37634077,40.95060297
3253800,37220,Pahrump,Nevada,32,36441,54738,-116.0175304,36.24092454
4868624,43660,Snyder,Texas,48,11202,16686,-100.9112755,32.71326723
4004450,12780,Bartlesville,Oklahoma,40,35750,53242,-95.94522958,36.73570909
4856516,37780,Pecos,Texas,48,8780,12956,-103.5056769,31.40457869
1974280,43980,Spencer,Iowa,19,11233,16475,-95.15341374,43.14678394
2033625,26740,Hutchinson,Kansas,20,42080,61516,-97.90811797,38.06709921
2002900,11860,Atchison,Kansas,20,11021,16108,-95.13676705,39.56249508
2749300,36940,Owatonna,Minnesota,27,25599,37398,-93.23043051,44.09136068
524430,22620,Forrest City,Arkansas,5,15371,22451,-90.78744414,35.01021253
1928515,22700,Fort Dodge,Iowa,19,25206,36626,-94.17511524,42.50978002
3032800,24500,Great Falls,Montana,30,58505,84864,-111.2995522,47.5021809
1949755,32260,Marshalltown,Iowa,19,27552,39879,-92.90671959,42.03410379
4666700,46820,Vermillion,South Dakota,46,10571,15280,-96.92554434,42.78112039
5613150,16220,Casper,Wyoming,56,55316,79601,-106.3207371,42.84201153
4857980,38380,Plainview,Texas,48,22194,31827,-101.7233511,34.19112938
4845000,31180,Lubbock,Texas,48,229573,328283,-101.8871891,33.56418032
4821556,20300,Dumas,Texas,48,14691,20996,-101.9641582,35.86125387
4879000,48660,Wichita Falls,Texas,48,104553,149299,-98.52902997,33.90718226
4803000,11100,Amarillo,Texas,48,190695,271171,-101.8310848,35.19887289
2031100,25700,Hays,Kansas,20,20510,28941,-99.3218444,38.88155294
873935,44540,Sterling,Colorado,8,14777,20823,-103.1918979,40.62073459
3135000,35820,North Platte,Nebraska,31,24733,34732,-100.7640036,41.12659039
3117670,23340,Fremont,Nebraska,31,26397,36997,-96.48789814,41.43960862
1960465,36900,Ottumwa,Iowa,19,25023,35043,-92.41859056,41.01961979
3840580,27420,Jamestown,North Dakota,38,15427,21487,-98.69366124,46.90632003
1745889,31380,Macomb,Illinois,17,19288,26861,-90.6817631,40.47211217
817760,18780,Craig,Colorado,8,9464,13177,-107.5557568,40.51702175
2021275,21380,Emporia,Kansas,20,24916,34446,-96.19241341,38.40278264
4817000,18580,Corpus Christi,Texas,48,305215,421628,-97.3751951,27.72606024
203000,11260,Anchorage,Alaska,2,291826,400470,-149.108248,61.15055299
2038900,29940,Lawrence,Kansas,20,87643,119964,-95.26410415,38.95975359
4824000,21340,El Paso,Texas,48,649121,872195,-106.4307125,31.84772685
4819792,19620,Del Rio,Texas,48,35591,47606,-100.8799586,29.37079466
1718823,19500,Decatur,Illinois,17,76122,101483,-88.93366814,39.85562729
4871540,45020,Sweetwater,Texas,48,10906,14473,-100.4092111,32.469293
4041850,30020,Lawton,Oklahoma,40,96867,128523,-98.42031813,34.61760125
3128000,30700,Lincoln,Nebraska,31,258379,342448,-96.6796066,40.80875223
3564930,40740,Roswell,New Mexico,35,48366,63894,-104.5293673,33.37296442
4864472,41660,San Angelo,Texas,48,93200,121839,-100.4501554,31.44258683
4841164,29500,Lamesa,Texas,48,9422,12130,-101.9541617,32.73325817
3516420,17580,Clovis,New Mexico,35,37775,47532,-103.1923524,34.43759107
4023950,21420,Enid,Oklahoma,40,49379,61920,-97.8701212,36.40609784
531190,25760,Helena-West Helena,Arkansas,5,12282,15304,-90.62010639,34.53135361
2062700,41460,Salina,Kansas,20,47707,59391,-97.61431337,38.81369952
3121415,25580,Hastings,Nebraska,31,24907,30970,-98.3913961,40.5962573
4001700,11060,Altus,Oklahoma,40,19813,24556,-99.30512174,34.65660898
2018250,19980,Dodge City,Kansas,20,27340,33848,-100.0182351,37.76100788
2829180,24740,Greenville,Mississippi,28,34400,42514,-91.05142962,33.38501285
4808236,13700,Big Spring,Texas,48,27282,33672,-101.4801736,32.23872276
5645050,29660,Laramie,Wyoming,56,30816,38031,-105.6085533,41.30989103
4854912,37420,Pampa,Texas,48,17994,21818,-100.9650367,35.54785605
4833320,25820,Hereford,Texas,48,15370,18377,-102.4000799,34.82317877
4839352,28780,Kingsville,Texas,48,26213,30720,-97.86099166,27.50950385
4875308,46900,Vernon,Texas,48,11002,12491,-99.30000886,34.1479835
4841464,29700,Laredo,Texas,48,236091,267780,-99.48728262,27.56153407
2813820,17260,Clarksdale,Mississippi,28,17962,20197,-90.57290668,34.19710202
3011397,15580,Butte-Silver Bow (balance),Montana,30,33525,36068,-112.6570569,45.90169096
3209700,16180,Carson City,Nevada,32,55274,58130,-119.7474155,39.15119383
2039825,30580,Liberal,Kansas,20,20525,21358,-100.929547,37.04657973
236400,27940,Juneau,Alaska,2,31275,31685,-134.1691824,58.45318754
178204,46740,Valley,Alabama,1,9524,9524,-85.17916665,32.80854872
1711007,15900,Canton,Illinois,17,14704,14704,-90.04093747,40.56316431
1756926,36860,Ottawa,Illinois,17,18768,18768,-88.83066773,41.35317978
1907480,14340,Boone,Iowa,19,12661,12661,-93.87704186,42.05301931
1956505,35500,Newton,Iowa,19,15254,15254,-93.04025595,41.69640253
2002300,11680,Arkansas City,Kansas,20,12415,12415,-97.03852792,37.07260617
2035750,27920,Junction City,Kansas,20,23353,23353,-96.84965881,39.02711393
2204685,12820,Bastrop,Louisiana,22,11365,11365,-91.90581359,32.77494646
2527100,24640,Greenfield Town,Massachusetts,25,17456,17456,-72.59855232,42.61402537
2640860,26960,Ionia,Michigan,26,11394,11394,-85.07275342,42.97724254
2661940,37020,Owosso,Michigan,26,15194,15194,-84.17585509,42.99548331
3312900,17200,Claremont,New Hampshire,33,13355,13355,-72.3368188,43.37899692
3718320,20380,Dunn,North Carolina,37,9263,9263,-78.61292938,35.31132162
3749800,37080,Oxford,North Carolina,37,8461,8461,-78.58476089,36.31554829
3964150,38840,Port Clinton,Ohio,39,6056,6056,-82.93829532,41.50941043
4846776,32220,Marshall,Texas,48,23523,23523,-94.35149216,32.53698187
4974095,44920,Summit Park,Utah,49,7775,7775,-111.5814522,40.7431692
5448148,30880,Logan,West Virginia,54,1779,1779,-81.98565451,37.85086262
5551250,32980,Merrill,Wisconsin,55,9661,9661,-89.70036675,45.18175311
